{"class":"TPV","tag":"MID2","device":"/dev/ttyUSB0","time":1301123546.000,"ept":0.005,"lat":59.319674,"lon":18.082038,"alt":0.130,"epx":9.299,"epy":14.612,"epv":38.451,"track":102.521057,"speed":15.306,"climb":0.008,"mode":3}
{"class":"TPV","tag":"MID2","device":"/dev/ttyUSB0","time":1301123547.000,"ept":0.005,"lat":59.319674,"lon":18.082038,"alt":0.130,"epx":9.299,"epy":14.612,"epv":38.451,"track":102.521057,"speed":15.306,"climb":0.008,"mode":3}
{"class":"TPV","tag":"MID2","device":"/dev/ttyUSB0","time":1301123548.000,"ept":0.005,"lat":59.319674,"lon":18.082038,"alt":0.130,"epx":9.299,"epy":14.612,"epv":38.451,"track":102.521057,"speed":15.306,"climb":0.008,"mode":3}
{"class":"TPV","tag":"MID2","device":"/dev/ttyUSB0","time":1301123549.000,"ept":0.005,"lat":59.319674,"lon":18.082038,"alt":0.130,"epx":9.299,"epy":14.612,"epv":38.451,"track":102.521057,"speed":15.306,"climb":0.008,"mode":3}
{"class":"TPV","tag":"MID2","device":"/dev/ttyUSB0","time":1301123550.000,"ept":0.005,"lat":59.319674,"lon":18.082038,"alt":0.130,"epx":9.299,"epy":14.612,"epv":38.451,"track":102.521057,"speed":15.306,"climb":0.008,"mode":3}
{"class":"TPV","tag":"MID2","device":"/dev/ttyUSB0","time":1301123551.000,"ept":0.005,"lat":59.319674,"lon":18.082038,"alt":0.130,"epx":9.299,"epy":14.612,"epv":38.451,"track":102.521057,"speed":15.306,"climb":0.008,"mode":3}
{"class":"TPV","tag":"MID2","device":"/dev/ttyUSB0","time":1301123552.000,"ept":0.005,"lat":59.319674,"lon":18.082038,"alt":0.130,"epx":9.299,"epy":14.612,"epv":38.451,"track":102.521057,"speed":15.306,"climb":0.008,"mode":3}
{"class":"TPV","tag":"MID2","device":"/dev/ttyUSB0","time":1301123553.000,"ept":0.005,"lat":59.319674,"lon":18.082038,"alt":0.130,"epx":9.299,"epy":14.612,"epv":38.451,"track":102.521057,"speed":15.306,"climb":0.008,"mode":3}
{"class":"TPV","tag":"MID2","device":"/dev/ttyUSB0","time":1301123554.000,"ept":0.005,"lat":59.319674,"lon":18.082038,"alt":0.130,"epx":9.299,"epy":14.612,"epv":38.451,"track":102.521057,"speed":15.306,"climb":0.008,"mode":3}
{"class":"TPV","tag":"MID2","device":"/dev/ttyUSB0","time":1301123555.000,"ept":0.005,"lat":59.319674,"lon":18.082038,"alt":0.130,"epx":9.299,"epy":14.612,"epv":38.451,"track":102.521057,"speed":15.306,"climb":0.008,"mode":3}
{"class":"TPV","tag":"MID2","device":"/dev/ttyUSB0","time":1301123556.000,"ept":0.005,"lat":59.319674,"lon":18.082038,"alt":0.130,"epx":9.299,"epy":14.612,"epv":38.451,"track":102.521057,"speed":15.306,"climb":0.008,"mode":3}
{"class":"TPV","tag":"MID2","device":"/dev/ttyUSB0","time":1301123557.000,"ept":0.005,"lat":59.319674,"lon":18.082038,"alt":0.130,"epx":9.299,"epy":14.612,"epv":38.451,"track":102.521057,"speed":15.306,"climb":0.008,"mode":3}
{"class":"TPV","tag":"MID2","device":"/dev/ttyUSB0","time":1301123558.000,"ept":0.005,"lat":59.319674,"lon":18.082038,"alt":0.130,"epx":9.299,"epy":14.612,"epv":38.451,"track":102.521057,"speed":15.306,"climb":0.008,"mode":3}
{"class":"TPV","tag":"MID2","device":"/dev/ttyUSB0","time":1301123559.000,"ept":0.005,"lat":59.319674,"lon":18.082038,"alt":0.130,"epx":9.299,"epy":14.612,"epv":38.451,"track":102.521057,"speed":15.306,"climb":0.008,"mode":3}
{"class":"TPV","tag":"MID2","device":"/dev/ttyUSB0","time":1301123560.000,"ept":0.005,"lat":59.319674,"lon":18.082038,"alt":0.130,"epx":9.299,"epy":14.612,"epv":38.451,"track":102.521057,"speed":15.306,"climb":0.008,"mode":3}
{"class":"TPV","tag":"MID2","device":"/dev/ttyUSB0","time":1301123561.000,"ept":0.005,"lat":59.319674,"lon":18.082038,"alt":0.130,"epx":9.299,"epy":14.612,"epv":38.451,"track":102.521057,"speed":15.306,"climb":0.008,"mode":3}
{"class":"TPV","tag":"MID2","device":"/dev/ttyUSB0","time":1301123562.000,"ept":0.005,"lat":59.319674,"lon":18.082038,"alt":0.130,"epx":9.299,"epy":14.612,"epv":38.451,"track":102.521057,"speed":15.306,"climb":0.008,"mode":3}
{"class":"TPV","tag":"MID2","device":"/dev/ttyUSB0","time":1301123563.000,"ept":0.005,"lat":59.319674,"lon":18.082038,"alt":0.130,"epx":9.299,"epy":14.612,"epv":38.451,"track":102.521057,"speed":15.306,"climb":0.008,"mode":3}
{"class":"TPV","tag":"MID2","device":"/dev/ttyUSB0","time":1301123564.000,"ept":0.005,"lat":59.319674,"lon":18.082038,"alt":0.130,"epx":9.299,"epy":14.612,"epv":38.451,"track":102.521057,"speed":15.306,"climb":0.008,"mode":3}
{"class":"TPV","tag":"MID2","device":"/dev/ttyUSB0","time":1301123565.000,"ept":0.005,"lat":59.319674,"lon":18.082038,"alt":0.130,"epx":9.299,"epy":14.612,"epv":38.451,"track":102.521057,"speed":15.306,"climb":0.008,"mode":3}
{"class":"TPV","tag":"MID2","device":"/dev/ttyUSB0","time":1301123566.000,"ept":0.005,"lat":59.319674,"lon":18.082038,"alt":0.130,"epx":9.299,"epy":14.612,"epv":38.451,"track":102.521057,"speed":15.306,"climb":0.008,"mode":3}
{"class":"TPV","tag":"MID2","device":"/dev/ttyUSB0","time":1301123567.000,"ept":0.005,"lat":59.319674,"lon":18.082038,"alt":0.130,"epx":9.299,"epy":14.612,"epv":38.451,"track":102.521057,"speed":15.306,"climb":0.008,"mode":3}
{"class":"TPV","tag":"MID2","device":"/dev/ttyUSB0","time":1301123568.000,"ept":0.005,"lat":59.319674,"lon":18.082038,"alt":0.130,"epx":9.299,"epy":14.612,"epv":38.451,"track":102.521057,"speed":15.306,"climb":0.008,"mode":3}
{"class":"TPV","tag":"MID2","device":"/dev/ttyUSB0","time":1301123569.000,"ept":0.005,"lat":59.319674,"lon":18.082038,"alt":0.130,"epx":9.299,"epy":14.612,"epv":38.451,"track":102.521057,"speed":15.306,"climb":0.008,"mode":3}
{"class":"TPV","tag":"MID2","device":"/dev/ttyUSB0","time":1301123570.000,"ept":0.005,"lat":59.319674,"lon":18.082038,"alt":0.130,"epx":9.299,"epy":14.612,"epv":38.451,"track":102.521057,"speed":15.306,"climb":0.008,"mode":3}
{"class":"TPV","tag":"MID2","device":"/dev/ttyUSB0","time":1301123571.000,"ept":0.005,"lat":59.319674,"lon":18.082038,"alt":0.130,"epx":9.299,"epy":14.612,"epv":38.451,"track":102.521057,"speed":15.306,"climb":0.008,"mode":3}
{"class":"TPV","tag":"MID2","device":"/dev/ttyUSB0","time":1301123572.000,"ept":0.005,"lat":59.319674,"lon":18.082038,"alt":0.130,"epx":9.299,"epy":14.612,"epv":38.451,"track":102.521057,"speed":15.306,"climb":0.008,"mode":3}
{"class":"TPV","tag":"MID2","device":"/dev/ttyUSB0","time":1301123573.000,"ept":0.005,"lat":59.319674,"lon":18.082038,"alt":0.130,"epx":9.299,"epy":14.612,"epv":38.451,"track":102.521057,"speed":15.306,"climb":0.008,"mode":3}
{"class":"TPV","tag":"MID2","device":"/dev/ttyUSB0","time":1301123574.000,"ept":0.005,"lat":59.319674,"lon":18.082038,"alt":0.130,"epx":9.299,"epy":14.612,"epv":38.451,"track":102.521057,"speed":15.306,"climb":0.008,"mode":3}
{"class":"TPV","tag":"MID2","device":"/dev/ttyUSB0","time":1301123575.000,"ept":0.005,"lat":59.319674,"lon":18.082038,"alt":0.130,"epx":9.299,"epy":14.612,"epv":38.451,"track":102.521057,"speed":15.306,"climb":0.008,"mode":3}
{"class":"TPV","tag":"MID2","device":"/dev/ttyUSB0","time":1301123576.000,"ept":0.005,"lat":59.319674,"lon":18.082038,"alt":0.130,"epx":9.299,"epy":14.612,"epv":38.451,"track":102.521057,"speed":15.306,"climb":0.008,"mode":3}
{"class":"TPV","tag":"MID2","device":"/dev/ttyUSB0","time":1301123577.000,"ept":0.005,"lat":59.319674,"lon":18.082038,"alt":0.130,"epx":9.299,"epy":14.612,"epv":38.451,"track":102.521057,"speed":15.306,"climb":0.008,"mode":3}
{"class":"TPV","tag":"MID2","device":"/dev/ttyUSB0","time":1301123578.000,"ept":0.005,"lat":59.319674,"lon":18.082038,"alt":0.130,"epx":9.299,"epy":14.612,"epv":38.451,"track":102.521057,"speed":15.306,"climb":0.008,"mode":3}
{"class":"TPV","tag":"MID2","device":"/dev/ttyUSB0","time":1301123579.000,"ept":0.005,"lat":59.319674,"lon":18.082038,"alt":0.130,"epx":9.299,"epy":14.612,"epv":38.451,"track":102.521057,"speed":15.306,"climb":0.008,"mode":3}
{"class":"TPV","tag":"MID2","device":"/dev/ttyUSB0","time":1301123580.000,"ept":0.005,"lat":59.319674,"lon":18.082038,"alt":0.130,"epx":9.299,"epy":14.612,"epv":38.451,"track":102.521057,"speed":15.306,"climb":0.008,"mode":3}
{"class":"TPV","tag":"MID2","device":"/dev/ttyUSB0","time":1301123581.000,"ept":0.005,"lat":59.319674,"lon":18.082038,"alt":0.130,"epx":9.299,"epy":14.612,"epv":38.451,"track":102.521057,"speed":15.306,"climb":0.008,"mode":3}
{"class":"TPV","tag":"MID2","device":"/dev/ttyUSB0","time":1301123582.000,"ept":0.005,"lat":59.319674,"lon":18.082038,"alt":0.130,"epx":9.299,"epy":14.612,"epv":38.451,"track":102.521057,"speed":15.306,"climb":0.008,"mode":3}
{"class":"TPV","tag":"MID2","device":"/dev/ttyUSB0","time":1301123583.000,"ept":0.005,"lat":59.319674,"lon":18.082038,"alt":0.130,"epx":9.299,"epy":14.612,"epv":38.451,"track":102.521057,"speed":15.306,"climb":0.008,"mode":3}
{"class":"TPV","tag":"MID2","device":"/dev/ttyUSB0","time":1301123584.000,"ept":0.005,"lat":59.319674,"lon":18.082038,"alt":0.130,"epx":9.299,"epy":14.612,"epv":38.451,"track":102.521057,"speed":15.306,"climb":0.008,"mode":3}
{"class":"TPV","tag":"MID2","device":"/dev/ttyUSB0","time":1301123585.000,"ept":0.005,"lat":59.319674,"lon":18.082038,"alt":0.130,"epx":9.299,"epy":14.612,"epv":38.451,"track":102.521057,"speed":15.306,"climb":0.008,"mode":3}
{"class":"TPV","tag":"MID2","device":"/dev/ttyUSB0","time":1301123586.000,"ept":0.005,"lat":59.319674,"lon":18.082038,"alt":0.130,"epx":9.299,"epy":14.612,"epv":38.451,"track":102.521057,"speed":15.306,"climb":0.008,"mode":3}
{"class":"TPV","tag":"MID2","device":"/dev/ttyUSB0","time":1301123587.000,"ept":0.005,"lat":59.319674,"lon":18.082038,"alt":0.130,"epx":9.299,"epy":14.612,"epv":38.451,"track":102.521057,"speed":15.306,"climb":0.008,"mode":3}
{"class":"TPV","tag":"MID2","device":"/dev/ttyUSB0","time":1301123588.000,"ept":0.005,"lat":59.319674,"lon":18.082038,"alt":0.130,"epx":9.299,"epy":14.612,"epv":38.451,"track":102.521057,"speed":15.306,"climb":0.008,"mode":3}
{"class":"TPV","tag":"MID2","device":"/dev/ttyUSB0","time":1301123589.000,"ept":0.005,"lat":59.319674,"lon":18.082038,"alt":0.130,"epx":9.299,"epy":14.612,"epv":38.451,"track":102.521057,"speed":15.306,"climb":0.008,"mode":3}
{"class":"TPV","tag":"MID2","device":"/dev/ttyUSB0","time":1301123590.000,"ept":0.005,"lat":59.319674,"lon":18.082038,"alt":0.130,"epx":9.299,"epy":14.612,"epv":38.451,"track":102.521057,"speed":15.306,"climb":0.008,"mode":3}
{"class":"TPV","tag":"MID2","device":"/dev/ttyUSB0","time":1301123591.000,"ept":0.005,"lat":59.319674,"lon":18.082038,"alt":0.130,"epx":9.299,"epy":14.612,"epv":38.451,"track":102.521057,"speed":15.306,"climb":0.008,"mode":3}
{"class":"TPV","tag":"MID2","device":"/dev/ttyUSB0","time":1301123592.000,"ept":0.005,"lat":59.319674,"lon":18.082038,"alt":0.130,"epx":9.299,"epy":14.612,"epv":38.451,"track":102.521057,"speed":15.306,"climb":0.008,"mode":3}
{"class":"TPV","tag":"MID2","device":"/dev/ttyUSB0","time":1301123593.000,"ept":0.005,"lat":59.319674,"lon":18.082038,"alt":0.130,"epx":9.299,"epy":14.612,"epv":38.451,"track":102.521057,"speed":15.306,"climb":0.008,"mode":3}
{"class":"TPV","tag":"MID2","device":"/dev/ttyUSB0","time":1301123594.000,"ept":0.005,"lat":59.319674,"lon":18.082038,"alt":0.130,"epx":9.299,"epy":14.612,"epv":38.451,"track":102.521057,"speed":15.306,"climb":0.008,"mode":3}
{"class":"TPV","tag":"MID2","device":"/dev/ttyUSB0","time":1301123595.000,"ept":0.005,"lat":59.319674,"lon":18.082038,"alt":0.130,"epx":9.299,"epy":14.612,"epv":38.451,"track":102.521057,"speed":15.306,"climb":0.008,"mode":3}
{"class":"TPV","tag":"MID2","device":"/dev/ttyUSB0","time":1301123596.000,"ept":0.005,"lat":59.319674,"lon":18.082038,"alt":0.130,"epx":9.299,"epy":14.612,"epv":38.451,"track":102.521057,"speed":15.306,"climb":0.008,"mode":3}
{"class":"TPV","tag":"MID2","device":"/dev/ttyUSB0","time":1301123597.000,"ept":0.005,"lat":59.319674,"lon":18.082038,"alt":0.130,"epx":9.299,"epy":14.612,"epv":38.451,"track":102.521057,"speed":15.306,"climb":0.008,"mode":3}
{"class":"TPV","tag":"MID2","device":"/dev/ttyUSB0","time":1301123598.000,"ept":0.005,"lat":59.319674,"lon":18.082038,"alt":0.130,"epx":9.299,"epy":14.612,"epv":38.451,"track":102.521057,"speed":15.306,"climb":0.008,"mode":3}
{"class":"TPV","tag":"MID2","device":"/dev/ttyUSB0","time":1301123599.000,"ept":0.005,"lat":59.319674,"lon":18.082038,"alt":0.130,"epx":9.299,"epy":14.612,"epv":38.451,"track":102.521057,"speed":15.306,"climb":0.008,"mode":3}
{"class":"TPV","tag":"MID2","device":"/dev/ttyUSB0","time":1301123600.000,"ept":0.005,"lat":59.319674,"lon":18.082038,"alt":0.130,"epx":9.299,"epy":14.612,"epv":38.451,"track":102.521057,"speed":15.306,"climb":0.008,"mode":3}
{"class":"TPV","tag":"MID2","device":"/dev/ttyUSB0","time":1301123601.000,"ept":0.005,"lat":59.319674,"lon":18.082038,"alt":0.130,"epx":9.299,"epy":14.612,"epv":38.451,"track":102.521057,"speed":15.306,"climb":0.008,"mode":3}
{"class":"TPV","tag":"MID2","device":"/dev/ttyUSB0","time":1301123602.000,"ept":0.005,"lat":59.319674,"lon":18.082038,"alt":0.130,"epx":9.299,"epy":14.612,"epv":38.451,"track":102.521057,"speed":15.306,"climb":0.008,"mode":3}
{"class":"TPV","tag":"MID2","device":"/dev/ttyUSB0","time":1301123603.000,"ept":0.005,"lat":59.319674,"lon":18.082038,"alt":0.130,"epx":9.299,"epy":14.612,"epv":38.451,"track":102.521057,"speed":15.306,"climb":0.008,"mode":3}
{"class":"TPV","tag":"MID2","device":"/dev/ttyUSB0","time":1301123604.000,"ept":0.005,"lat":59.319674,"lon":18.082038,"alt":0.130,"epx":9.299,"epy":14.612,"epv":38.451,"track":102.521057,"speed":15.306,"climb":0.008,"mode":3}
{"class":"TPV","tag":"MID2","device":"/dev/ttyUSB0","time":1301123605.000,"ept":0.005,"lat":59.319674,"lon":18.082038,"alt":0.130,"epx":9.299,"epy":14.612,"epv":38.451,"track":102.521057,"speed":15.306,"climb":0.008,"mode":3}
{"class":"TPV","tag":"MID2","device":"/dev/ttyUSB0","time":1301123606.000,"ept":0.005,"lat":59.319674,"lon":18.082038,"alt":0.130,"epx":9.299,"epy":14.612,"epv":38.451,"track":102.521057,"speed":15.306,"climb":0.008,"mode":3}
{"class":"TPV","tag":"MID2","device":"/dev/ttyUSB0","time":1301123607.000,"ept":0.005,"lat":59.319674,"lon":18.082038,"alt":0.130,"epx":9.299,"epy":14.612,"epv":38.451,"track":102.521057,"speed":15.306,"climb":0.008,"mode":3}
{"class":"TPV","tag":"MID2","device":"/dev/ttyUSB0","time":1301123608.000,"ept":0.005,"lat":59.319674,"lon":18.082038,"alt":0.130,"epx":9.299,"epy":14.612,"epv":38.451,"track":102.521057,"speed":15.306,"climb":0.008,"mode":3}
{"class":"TPV","tag":"MID2","device":"/dev/ttyUSB0","time":1301123609.000,"ept":0.005,"lat":59.319674,"lon":18.082038,"alt":0.130,"epx":9.299,"epy":14.612,"epv":38.451,"track":102.521057,"speed":15.306,"climb":0.008,"mode":3}
{"class":"TPV","tag":"MID2","device":"/dev/ttyUSB0","time":1301123610.000,"ept":0.005,"lat":59.319674,"lon":18.082038,"alt":0.130,"epx":9.299,"epy":14.612,"epv":38.451,"track":102.521057,"speed":15.306,"climb":0.008,"mode":3}
{"class":"TPV","tag":"MID2","device":"/dev/ttyUSB0","time":1301123611.000,"ept":0.005,"lat":59.319674,"lon":18.082038,"alt":0.130,"epx":9.299,"epy":14.612,"epv":38.451,"track":102.521057,"speed":15.306,"climb":0.008,"mode":3}
{"class":"TPV","tag":"MID2","device":"/dev/ttyUSB0","time":1301123612.000,"ept":0.005,"lat":59.319674,"lon":18.082038,"alt":0.130,"epx":9.299,"epy":14.612,"epv":38.451,"track":102.521057,"speed":15.306,"climb":0.008,"mode":3}
{"class":"TPV","tag":"MID2","device":"/dev/ttyUSB0","time":1301123613.000,"ept":0.005,"lat":59.319674,"lon":18.082038,"alt":0.130,"epx":9.299,"epy":14.612,"epv":38.451,"track":102.521057,"speed":15.306,"climb":0.008,"mode":3}
{"class":"TPV","tag":"MID2","device":"/dev/ttyUSB0","time":1301123614.000,"ept":0.005,"lat":59.319674,"lon":18.082038,"alt":0.130,"epx":9.299,"epy":14.612,"epv":38.451,"track":102.521057,"speed":15.306,"climb":0.008,"mode":3}
{"class":"TPV","tag":"MID2","device":"/dev/ttyUSB0","time":1301123615.000,"ept":0.005,"lat":59.319674,"lon":18.082038,"alt":0.130,"epx":9.299,"epy":14.612,"epv":38.451,"track":102.521057,"speed":15.306,"climb":0.008,"mode":3}
{"class":"TPV","tag":"MID2","device":"/dev/ttyUSB0","time":1301123616.000,"ept":0.005,"lat":59.319674,"lon":18.082038,"alt":0.130,"epx":9.299,"epy":14.612,"epv":38.451,"track":102.521057,"speed":15.306,"climb":0.008,"mode":3}
{"class":"TPV","tag":"MID2","device":"/dev/ttyUSB0","time":1301123617.000,"ept":0.005,"lat":59.319674,"lon":18.082038,"alt":0.130,"epx":9.299,"epy":14.612,"epv":38.451,"track":102.521057,"speed":15.306,"climb":0.008,"mode":3}
{"class":"TPV","tag":"MID2","device":"/dev/ttyUSB0","time":1301123618.000,"ept":0.005,"lat":59.319674,"lon":18.082038,"alt":0.130,"epx":9.299,"epy":14.612,"epv":38.451,"track":102.521057,"speed":15.306,"climb":0.008,"mode":3}
{"class":"TPV","tag":"MID2","device":"/dev/ttyUSB0","time":1301123619.000,"ept":0.005,"lat":59.319674,"lon":18.082038,"alt":0.130,"epx":9.299,"epy":14.612,"epv":38.451,"track":102.521057,"speed":15.306,"climb":0.008,"mode":3}
{"class":"TPV","tag":"MID2","device":"/dev/ttyUSB0","time":1301123620.000,"ept":0.005,"lat":59.319674,"lon":18.082038,"alt":0.130,"epx":9.299,"epy":14.612,"epv":38.451,"track":102.521057,"speed":15.306,"climb":0.008,"mode":3}
{"class":"TPV","tag":"MID2","device":"/dev/ttyUSB0","time":1301123621.000,"ept":0.005,"lat":59.319674,"lon":18.082038,"alt":0.130,"epx":9.299,"epy":14.612,"epv":38.451,"track":102.521057,"speed":15.306,"climb":0.008,"mode":3}
{"class":"TPV","tag":"MID2","device":"/dev/ttyUSB0","time":1301123622.000,"ept":0.005,"lat":59.319674,"lon":18.082038,"alt":0.130,"epx":9.299,"epy":14.612,"epv":38.451,"track":102.521057,"speed":15.306,"climb":0.008,"mode":3}
{"class":"TPV","tag":"MID2","device":"/dev/ttyUSB0","time":1301123623.000,"ept":0.005,"lat":59.319674,"lon":18.082038,"alt":0.130,"epx":9.299,"epy":14.612,"epv":38.451,"track":102.521057,"speed":15.306,"climb":0.008,"mode":3}
{"class":"TPV","tag":"MID2","device":"/dev/ttyUSB0","time":1301123624.000,"ept":0.005,"lat":59.319674,"lon":18.082038,"alt":0.130,"epx":9.299,"epy":14.612,"epv":38.451,"track":102.521057,"speed":15.306,"climb":0.008,"mode":3}
{"class":"TPV","tag":"MID2","device":"/dev/ttyUSB0","time":1301123625.000,"ept":0.005,"lat":59.319674,"lon":18.082038,"alt":0.130,"epx":9.299,"epy":14.612,"epv":38.451,"track":102.521057,"speed":15.306,"climb":0.008,"mode":3}
{"class":"TPV","tag":"MID2","device":"/dev/ttyUSB0","time":1301123626.000,"ept":0.005,"lat":59.319674,"lon":18.082038,"alt":0.130,"epx":9.299,"epy":14.612,"epv":38.451,"track":102.521057,"speed":15.306,"climb":0.008,"mode":3}
{"class":"TPV","tag":"MID2","device":"/dev/ttyUSB0","time":1301123627.000,"ept":0.005,"lat":59.319674,"lon":18.082038,"alt":0.130,"epx":9.299,"epy":14.612,"epv":38.451,"track":102.521057,"speed":15.306,"climb":0.008,"mode":3}
{"class":"TPV","tag":"MID2","device":"/dev/ttyUSB0","time":1301123628.000,"ept":0.005,"lat":59.319674,"lon":18.082038,"alt":0.130,"epx":9.299,"epy":14.612,"epv":38.451,"track":102.521057,"speed":15.306,"climb":0.008,"mode":3}
{"class":"TPV","tag":"MID2","device":"/dev/ttyUSB0","time":1301123629.000,"ept":0.005,"lat":59.319674,"lon":18.082038,"alt":0.130,"epx":9.299,"epy":14.612,"epv":38.451,"track":102.521057,"speed":15.306,"climb":0.008,"mode":3}
{"class":"TPV","tag":"MID2","device":"/dev/ttyUSB0","time":1301123630.000,"ept":0.005,"lat":59.319674,"lon":18.082038,"alt":0.130,"epx":9.299,"epy":14.612,"epv":38.451,"track":102.521057,"speed":15.306,"climb":0.008,"mode":3}
{"class":"TPV","tag":"MID2","device":"/dev/ttyUSB0","time":1301123631.000,"ept":0.005,"lat":59.319674,"lon":18.082038,"alt":0.130,"epx":9.299,"epy":14.612,"epv":38.451,"track":102.521057,"speed":15.306,"climb":0.008,"mode":3}
{"class":"TPV","tag":"MID2","device":"/dev/ttyUSB0","time":1301123632.000,"ept":0.005,"lat":59.319674,"lon":18.082038,"alt":0.130,"epx":9.299,"epy":14.612,"epv":38.451,"track":102.521057,"speed":15.306,"climb":0.008,"mode":3}
{"class":"TPV","tag":"MID2","device":"/dev/ttyUSB0","time":1301123633.000,"ept":0.005,"lat":59.319674,"lon":18.082038,"alt":0.130,"epx":9.299,"epy":14.612,"epv":38.451,"track":102.521057,"speed":15.306,"climb":0.008,"mode":3}
{"class":"TPV","tag":"MID2","device":"/dev/ttyUSB0","time":1301123634.000,"ept":0.005,"lat":59.319674,"lon":18.082038,"alt":0.130,"epx":9.299,"epy":14.612,"epv":38.451,"track":102.521057,"speed":15.306,"climb":0.008,"mode":3}
{"class":"TPV","tag":"MID2","device":"/dev/ttyUSB0","time":1301123635.000,"ept":0.005,"lat":59.319674,"lon":18.082038,"alt":0.130,"epx":9.299,"epy":14.612,"epv":38.451,"track":102.521057,"speed":15.306,"climb":0.008,"mode":3}
{"class":"TPV","tag":"MID2","device":"/dev/ttyUSB0","time":1301123636.000,"ept":0.005,"lat":59.319674,"lon":18.082038,"alt":0.130,"epx":9.299,"epy":14.612,"epv":38.451,"track":102.521057,"speed":15.306,"climb":0.008,"mode":3}
{"class":"TPV","tag":"MID2","device":"/dev/ttyUSB0","time":1301123637.000,"ept":0.005,"lat":59.319674,"lon":18.082038,"alt":0.130,"epx":9.299,"epy":14.612,"epv":38.451,"track":102.521057,"speed":15.306,"climb":0.008,"mode":3}
{"class":"TPV","tag":"MID2","device":"/dev/ttyUSB0","time":1301123638.000,"ept":0.005,"lat":59.319674,"lon":18.082038,"alt":0.130,"epx":9.299,"epy":14.612,"epv":38.451,"track":102.521057,"speed":15.306,"climb":0.008,"mode":3}
{"class":"TPV","tag":"MID2","device":"/dev/ttyUSB0","time":1301123639.000,"ept":0.005,"lat":59.319674,"lon":18.082038,"alt":0.130,"epx":9.299,"epy":14.612,"epv":38.451,"track":102.521057,"speed":15.306,"climb":0.008,"mode":3}
{"class":"TPV","tag":"MID2","device":"/dev/ttyUSB0","time":1301123640.000,"ept":0.005,"lat":59.319674,"lon":18.082038,"alt":0.130,"epx":9.299,"epy":14.612,"epv":38.451,"track":102.521057,"speed":15.306,"climb":0.008,"mode":3}
{"class":"TPV","tag":"MID2","device":"/dev/ttyUSB0","time":1301123641.000,"ept":0.005,"lat":59.319674,"lon":18.082038,"alt":0.130,"epx":9.299,"epy":14.612,"epv":38.451,"track":102.521057,"speed":15.306,"climb":0.008,"mode":3}
{"class":"TPV","tag":"MID2","device":"/dev/ttyUSB0","time":1301123642.000,"ept":0.005,"lat":59.319674,"lon":18.082038,"alt":0.130,"epx":9.299,"epy":14.612,"epv":38.451,"track":102.521057,"speed":15.306,"climb":0.008,"mode":3}
{"class":"TPV","tag":"MID2","device":"/dev/ttyUSB0","time":1301123643.000,"ept":0.005,"lat":59.319674,"lon":18.082038,"alt":0.130,"epx":9.299,"epy":14.612,"epv":38.451,"track":102.521057,"speed":15.306,"climb":0.008,"mode":3}
{"class":"TPV","tag":"MID2","device":"/dev/ttyUSB0","time":1301123644.000,"ept":0.005,"lat":59.319674,"lon":18.082038,"alt":0.130,"epx":9.299,"epy":14.612,"epv":38.451,"track":102.521057,"speed":15.306,"climb":0.008,"mode":3}
{"class":"TPV","tag":"MID2","device":"/dev/ttyUSB0","time":1301123645.000,"ept":0.005,"lat":59.319674,"lon":18.082038,"alt":0.130,"epx":9.299,"epy":14.612,"epv":38.451,"track":102.521057,"speed":15.306,"climb":0.008,"mode":3}
{"class":"TPV","tag":"MID2","device":"/dev/ttyUSB0","time":1301123646.000,"ept":0.005,"lat":59.319674,"lon":18.082038,"alt":0.130,"epx":9.299,"epy":14.612,"epv":38.451,"track":102.521057,"speed":15.306,"climb":0.008,"mode":3}
{"class":"TPV","tag":"MID2","device":"/dev/ttyUSB0","time":1301123647.000,"ept":0.005,"lat":59.319674,"lon":18.082038,"alt":0.130,"epx":9.299,"epy":14.612,"epv":38.451,"track":102.521057,"speed":15.306,"climb":0.008,"mode":3}
{"class":"TPV","tag":"MID2","device":"/dev/ttyUSB0","time":1301123648.000,"ept":0.005,"lat":59.319674,"lon":18.082038,"alt":0.130,"epx":9.299,"epy":14.612,"epv":38.451,"track":102.521057,"speed":15.306,"climb":0.008,"mode":3}
{"class":"TPV","tag":"MID2","device":"/dev/ttyUSB0","time":1301123649.000,"ept":0.005,"lat":59.319674,"lon":18.082038,"alt":0.130,"epx":9.299,"epy":14.612,"epv":38.451,"track":102.521057,"speed":15.306,"climb":0.008,"mode":3}
{"class":"TPV","tag":"MID2","device":"/dev/ttyUSB0","time":1301123650.000,"ept":0.005,"lat":59.319674,"lon":18.082038,"alt":0.130,"epx":9.299,"epy":14.612,"epv":38.451,"track":102.521057,"speed":15.306,"climb":0.008,"mode":3}
{"class":"TPV","tag":"MID2","device":"/dev/ttyUSB0","time":1301123651.000,"ept":0.005,"lat":59.319674,"lon":18.082038,"alt":0.130,"epx":9.299,"epy":14.612,"epv":38.451,"track":102.521057,"speed":15.306,"climb":0.008,"mode":3}
{"class":"TPV","tag":"MID2","device":"/dev/ttyUSB0","time":1301123652.000,"ept":0.005,"lat":59.319674,"lon":18.082038,"alt":0.130,"epx":9.299,"epy":14.612,"epv":38.451,"track":102.521057,"speed":15.306,"climb":0.008,"mode":3}
{"class":"TPV","tag":"MID2","device":"/dev/ttyUSB0","time":1301123653.000,"ept":0.005,"lat":59.319674,"lon":18.082038,"alt":0.130,"epx":9.299,"epy":14.612,"epv":38.451,"track":102.521057,"speed":15.306,"climb":0.008,"mode":3}
{"class":"TPV","tag":"MID2","device":"/dev/ttyUSB0","time":1301123654.000,"ept":0.005,"lat":59.319674,"lon":18.082038,"alt":0.130,"epx":9.299,"epy":14.612,"epv":38.451,"track":102.521057,"speed":15.306,"climb":0.008,"mode":3}
{"class":"TPV","tag":"MID2","device":"/dev/ttyUSB0","time":1301123655.000,"ept":0.005,"lat":59.319674,"lon":18.082038,"alt":0.130,"epx":9.299,"epy":14.612,"epv":38.451,"track":102.521057,"speed":15.306,"climb":0.008,"mode":3}
{"class":"TPV","tag":"MID2","device":"/dev/ttyUSB0","time":1301123656.000,"ept":0.005,"lat":59.319674,"lon":18.082038,"alt":0.130,"epx":9.299,"epy":14.612,"epv":38.451,"track":102.521057,"speed":15.306,"climb":0.008,"mode":3}
{"class":"TPV","tag":"MID2","device":"/dev/ttyUSB0","time":1301123657.000,"ept":0.005,"lat":59.319674,"lon":18.082038,"alt":0.130,"epx":9.299,"epy":14.612,"epv":38.451,"track":102.521057,"speed":15.306,"climb":0.008,"mode":3}
{"class":"TPV","tag":"MID2","device":"/dev/ttyUSB0","time":1301123658.000,"ept":0.005,"lat":59.319674,"lon":18.082038,"alt":0.130,"epx":9.299,"epy":14.612,"epv":38.451,"track":102.521057,"speed":15.306,"climb":0.008,"mode":3}
{"class":"TPV","tag":"MID2","device":"/dev/ttyUSB0","time":1301123659.000,"ept":0.005,"lat":59.319674,"lon":18.082038,"alt":0.130,"epx":9.299,"epy":14.612,"epv":38.451,"track":102.521057,"speed":15.306,"climb":0.008,"mode":3}
{"class":"TPV","tag":"MID2","device":"/dev/ttyUSB0","time":1301123660.000,"ept":0.005,"lat":59.319674,"lon":18.082038,"alt":0.130,"epx":9.299,"epy":14.612,"epv":38.451,"track":102.521057,"speed":15.306,"climb":0.008,"mode":3}
{"class":"TPV","tag":"MID2","device":"/dev/ttyUSB0","time":1301123661.000,"ept":0.005,"lat":59.319674,"lon":18.082038,"alt":0.130,"epx":9.299,"epy":14.612,"epv":38.451,"track":102.521057,"speed":15.306,"climb":0.008,"mode":3}
{"class":"TPV","tag":"MID2","device":"/dev/ttyUSB0","time":1301123662.000,"ept":0.005,"lat":59.319674,"lon":18.082038,"alt":0.130,"epx":9.299,"epy":14.612,"epv":38.451,"track":102.521057,"speed":15.306,"climb":0.008,"mode":3}
{"class":"TPV","tag":"MID2","device":"/dev/ttyUSB0","time":1301123663.000,"ept":0.005,"lat":59.319674,"lon":18.082038,"alt":0.130,"epx":9.299,"epy":14.612,"epv":38.451,"track":102.521057,"speed":15.306,"climb":0.008,"mode":3}
{"class":"TPV","tag":"MID2","device":"/dev/ttyUSB0","time":1301123664.000,"ept":0.005,"lat":59.319674,"lon":18.082038,"alt":0.130,"epx":9.299,"epy":14.612,"epv":38.451,"track":102.521057,"speed":15.306,"climb":0.008,"mode":3}
{"class":"TPV","tag":"MID2","device":"/dev/ttyUSB0","time":1301123665.000,"ept":0.005,"lat":59.319674,"lon":18.082038,"alt":0.130,"epx":9.299,"epy":14.612,"epv":38.451,"track":102.521057,"speed":15.306,"climb":0.008,"mode":3}
{"class":"TPV","tag":"MID2","device":"/dev/ttyUSB0","time":1301123666.000,"ept":0.005,"lat":59.319674,"lon":18.082038,"alt":0.130,"epx":9.299,"epy":14.612,"epv":38.451,"track":102.521057,"speed":15.306,"climb":0.008,"mode":3}
{"class":"TPV","tag":"MID2","device":"/dev/ttyUSB0","time":1301123667.000,"ept":0.005,"lat":59.319674,"lon":18.082038,"alt":0.130,"epx":9.299,"epy":14.612,"epv":38.451,"track":102.521057,"speed":15.306,"climb":0.008,"mode":3}
{"class":"TPV","tag":"MID2","device":"/dev/ttyUSB0","time":1301123668.000,"ept":0.005,"lat":59.319674,"lon":18.082038,"alt":0.130,"epx":9.299,"epy":14.612,"epv":38.451,"track":102.521057,"speed":15.306,"climb":0.008,"mode":3}
{"class":"TPV","tag":"MID2","device":"/dev/ttyUSB0","time":1301123669.000,"ept":0.005,"lat":59.319674,"lon":18.082038,"alt":0.130,"epx":9.299,"epy":14.612,"epv":38.451,"track":102.521057,"speed":15.306,"climb":0.008,"mode":3}
{"class":"TPV","tag":"MID2","device":"/dev/ttyUSB0","time":1301123670.000,"ept":0.005,"lat":59.319674,"lon":18.082038,"alt":0.130,"epx":9.299,"epy":14.612,"epv":38.451,"track":102.521057,"speed":15.306,"climb":0.008,"mode":3}
{"class":"TPV","tag":"MID2","device":"/dev/ttyUSB0","time":1301123671.000,"ept":0.005,"lat":59.319674,"lon":18.082038,"alt":0.130,"epx":9.299,"epy":14.612,"epv":38.451,"track":102.521057,"speed":15.306,"climb":0.008,"mode":3}
{"class":"TPV","tag":"MID2","device":"/dev/ttyUSB0","time":1301123672.000,"ept":0.005,"lat":59.319674,"lon":18.082038,"alt":0.130,"epx":9.299,"epy":14.612,"epv":38.451,"track":102.521057,"speed":15.306,"climb":0.008,"mode":3}
{"class":"TPV","tag":"MID2","device":"/dev/ttyUSB0","time":1301123673.000,"ept":0.005,"lat":59.319674,"lon":18.082038,"alt":0.130,"epx":9.299,"epy":14.612,"epv":38.451,"track":102.521057,"speed":15.306,"climb":0.008,"mode":3}
{"class":"TPV","tag":"MID2","device":"/dev/ttyUSB0","time":1301123674.000,"ept":0.005,"lat":59.319674,"lon":18.082038,"alt":0.130,"epx":9.299,"epy":14.612,"epv":38.451,"track":102.521057,"speed":15.306,"climb":0.008,"mode":3}
{"class":"TPV","tag":"MID2","device":"/dev/ttyUSB0","time":1301123675.000,"ept":0.005,"lat":59.319674,"lon":18.082038,"alt":0.130,"epx":9.299,"epy":14.612,"epv":38.451,"track":102.521057,"speed":15.306,"climb":0.008,"mode":3}
{"class":"TPV","tag":"MID2","device":"/dev/ttyUSB0","time":1301123676.000,"ept":0.005,"lat":59.319674,"lon":18.082038,"alt":0.130,"epx":9.299,"epy":14.612,"epv":38.451,"track":102.521057,"speed":15.306,"climb":0.008,"mode":3}
{"class":"TPV","tag":"MID2","device":"/dev/ttyUSB0","time":1301123677.000,"ept":0.005,"lat":59.319674,"lon":18.082038,"alt":0.130,"epx":9.299,"epy":14.612,"epv":38.451,"track":102.521057,"speed":15.306,"climb":0.008,"mode":3}
{"class":"TPV","tag":"MID2","device":"/dev/ttyUSB0","time":1301123678.000,"ept":0.005,"lat":59.319674,"lon":18.082038,"alt":0.130,"epx":9.299,"epy":14.612,"epv":38.451,"track":102.521057,"speed":15.306,"climb":0.008,"mode":3}
{"class":"TPV","tag":"MID2","device":"/dev/ttyUSB0","time":1301123679.000,"ept":0.005,"lat":59.319674,"lon":18.082038,"alt":0.130,"epx":9.299,"epy":14.612,"epv":38.451,"track":102.521057,"speed":15.306,"climb":0.008,"mode":3}
{"class":"TPV","tag":"MID2","device":"/dev/ttyUSB0","time":1301123680.000,"ept":0.005,"lat":59.319674,"lon":18.082038,"alt":0.130,"epx":9.299,"epy":14.612,"epv":38.451,"track":102.521057,"speed":15.306,"climb":0.008,"mode":3}
{"class":"TPV","tag":"MID2","device":"/dev/ttyUSB0","time":1301123681.000,"ept":0.005,"lat":59.319674,"lon":18.082038,"alt":0.130,"epx":9.299,"epy":14.612,"epv":38.451,"track":102.521057,"speed":15.306,"climb":0.008,"mode":3}
{"class":"TPV","tag":"MID2","device":"/dev/ttyUSB0","time":1301123682.000,"ept":0.005,"lat":59.319674,"lon":18.082038,"alt":0.130,"epx":9.299,"epy":14.612,"epv":38.451,"track":102.521057,"speed":15.306,"climb":0.008,"mode":3}
{"class":"TPV","tag":"MID2","device":"/dev/ttyUSB0","time":1301123683.000,"ept":0.005,"lat":59.319674,"lon":18.082038,"alt":0.130,"epx":9.299,"epy":14.612,"epv":38.451,"track":102.521057,"speed":15.306,"climb":0.008,"mode":3}
{"class":"TPV","tag":"MID2","device":"/dev/ttyUSB0","time":1301123684.000,"ept":0.005,"lat":59.319674,"lon":18.082038,"alt":0.130,"epx":9.299,"epy":14.612,"epv":38.451,"track":102.521057,"speed":15.306,"climb":0.008,"mode":3}
{"class":"TPV","tag":"MID2","device":"/dev/ttyUSB0","time":1301123685.000,"ept":0.005,"lat":59.319674,"lon":18.082038,"alt":0.130,"epx":9.299,"epy":14.612,"epv":38.451,"track":102.521057,"speed":15.306,"climb":0.008,"mode":3}
{"class":"TPV","tag":"MID2","device":"/dev/ttyUSB0","time":1301123686.000,"ept":0.005,"lat":59.319674,"lon":18.082038,"alt":0.130,"epx":9.299,"epy":14.612,"epv":38.451,"track":102.521057,"speed":15.306,"climb":0.008,"mode":3}
{"class":"TPV","tag":"MID2","device":"/dev/ttyUSB0","time":1301123687.000,"ept":0.005,"lat":59.319674,"lon":18.082038,"alt":0.130,"epx":9.299,"epy":14.612,"epv":38.451,"track":102.521057,"speed":15.306,"climb":0.008,"mode":3}
{"class":"TPV","tag":"MID2","device":"/dev/ttyUSB0","time":1301123688.000,"ept":0.005,"lat":59.319674,"lon":18.082038,"alt":0.130,"epx":9.299,"epy":14.612,"epv":38.451,"track":102.521057,"speed":15.306,"climb":0.008,"mode":3}
{"class":"TPV","tag":"MID2","device":"/dev/ttyUSB0","time":1301123689.000,"ept":0.005,"lat":59.319674,"lon":18.082038,"alt":0.130,"epx":9.299,"epy":14.612,"epv":38.451,"track":102.521057,"speed":15.306,"climb":0.008,"mode":3}
{"class":"TPV","tag":"MID2","device":"/dev/ttyUSB0","time":1301123690.000,"ept":0.005,"lat":59.319674,"lon":18.082038,"alt":0.130,"epx":9.299,"epy":14.612,"epv":38.451,"track":102.521057,"speed":15.306,"climb":0.008,"mode":3}
{"class":"TPV","tag":"MID2","device":"/dev/ttyUSB0","time":1301123691.000,"ept":0.005,"lat":59.319674,"lon":18.082038,"alt":0.130,"epx":9.299,"epy":14.612,"epv":38.451,"track":102.521057,"speed":15.306,"climb":0.008,"mode":3}
{"class":"TPV","tag":"MID2","device":"/dev/ttyUSB0","time":1301123692.000,"ept":0.005,"lat":59.319674,"lon":18.082038,"alt":0.130,"epx":9.299,"epy":14.612,"epv":38.451,"track":102.521057,"speed":15.306,"climb":0.008,"mode":3}
{"class":"TPV","tag":"MID2","device":"/dev/ttyUSB0","time":1301123693.000,"ept":0.005,"lat":59.319674,"lon":18.082038,"alt":0.130,"epx":9.299,"epy":14.612,"epv":38.451,"track":102.521057,"speed":15.306,"climb":0.008,"mode":3}
{"class":"TPV","tag":"MID2","device":"/dev/ttyUSB0","time":1301123694.000,"ept":0.005,"lat":59.319674,"lon":18.082038,"alt":0.130,"epx":9.299,"epy":14.612,"epv":38.451,"track":102.521057,"speed":15.306,"climb":0.008,"mode":3}
{"class":"TPV","tag":"MID2","device":"/dev/ttyUSB0","time":1301123695.000,"ept":0.005,"lat":59.319674,"lon":18.082038,"alt":0.130,"epx":9.299,"epy":14.612,"epv":38.451,"track":102.521057,"speed":15.306,"climb":0.008,"mode":3}
{"class":"TPV","tag":"MID2","device":"/dev/ttyUSB0","time":1301123696.000,"ept":0.005,"lat":59.319674,"lon":18.082038,"alt":0.130,"epx":9.299,"epy":14.612,"epv":38.451,"track":102.521057,"speed":15.306,"climb":0.008,"mode":3}
{"class":"TPV","tag":"MID2","device":"/dev/ttyUSB0","time":1301123697.000,"ept":0.005,"lat":59.319674,"lon":18.082038,"alt":0.130,"epx":9.299,"epy":14.612,"epv":38.451,"track":102.521057,"speed":15.306,"climb":0.008,"mode":3}
{"class":"TPV","tag":"MID2","device":"/dev/ttyUSB0","time":1301123698.000,"ept":0.005,"lat":59.319674,"lon":18.082038,"alt":0.130,"epx":9.299,"epy":14.612,"epv":38.451,"track":102.521057,"speed":15.306,"climb":0.008,"mode":3}
{"class":"TPV","tag":"MID2","device":"/dev/ttyUSB0","time":1301123699.000,"ept":0.005,"lat":59.319674,"lon":18.082038,"alt":0.130,"epx":9.299,"epy":14.612,"epv":38.451,"track":102.521057,"speed":15.306,"climb":0.008,"mode":3}
{"class":"TPV","tag":"MID2","device":"/dev/ttyUSB0","time":1301123700.000,"ept":0.005,"lat":59.319674,"lon":18.082038,"alt":0.130,"epx":9.299,"epy":14.612,"epv":38.451,"track":102.521057,"speed":15.306,"climb":0.008,"mode":3}
{"class":"TPV","tag":"MID2","device":"/dev/ttyUSB0","time":1301123701.000,"ept":0.005,"lat":59.319674,"lon":18.082038,"alt":0.130,"epx":9.299,"epy":14.612,"epv":38.451,"track":102.521057,"speed":15.306,"climb":0.008,"mode":3}
{"class":"TPV","tag":"MID2","device":"/dev/ttyUSB0","time":1301123702.000,"ept":0.005,"lat":59.319674,"lon":18.082038,"alt":0.130,"epx":9.299,"epy":14.612,"epv":38.451,"track":102.521057,"speed":15.306,"climb":0.008,"mode":3}
{"class":"TPV","tag":"MID2","device":"/dev/ttyUSB0","time":1301123703.000,"ept":0.005,"lat":59.319674,"lon":18.082038,"alt":0.130,"epx":9.299,"epy":14.612,"epv":38.451,"track":102.521057,"speed":15.306,"climb":0.008,"mode":3}
{"class":"TPV","tag":"MID2","device":"/dev/ttyUSB0","time":1301123704.000,"ept":0.005,"lat":59.319674,"lon":18.082038,"alt":0.130,"epx":9.299,"epy":14.612,"epv":38.451,"track":102.521057,"speed":15.306,"climb":0.008,"mode":3}
{"class":"TPV","tag":"MID2","device":"/dev/ttyUSB0","time":1301123705.000,"ept":0.005,"lat":59.319674,"lon":18.082038,"alt":0.130,"epx":9.299,"epy":14.612,"epv":38.451,"track":102.521057,"speed":15.306,"climb":0.008,"mode":3}
{"class":"TPV","tag":"MID2","device":"/dev/ttyUSB0","time":1301123706.000,"ept":0.005,"lat":59.319674,"lon":18.082038,"alt":0.130,"epx":9.299,"epy":14.612,"epv":38.451,"track":102.521057,"speed":15.306,"climb":0.008,"mode":3}
{"class":"TPV","tag":"MID2","device":"/dev/ttyUSB0","time":1301123707.000,"ept":0.005,"lat":59.319674,"lon":18.082038,"alt":0.130,"epx":9.299,"epy":14.612,"epv":38.451,"track":102.521057,"speed":15.306,"climb":0.008,"mode":3}
{"class":"TPV","tag":"MID2","device":"/dev/ttyUSB0","time":1301123708.000,"ept":0.005,"lat":59.319674,"lon":18.082038,"alt":0.130,"epx":9.299,"epy":14.612,"epv":38.451,"track":102.521057,"speed":15.306,"climb":0.008,"mode":3}
{"class":"TPV","tag":"MID2","device":"/dev/ttyUSB0","time":1301123709.000,"ept":0.005,"lat":59.319674,"lon":18.082038,"alt":0.130,"epx":9.299,"epy":14.612,"epv":38.451,"track":102.521057,"speed":15.306,"climb":0.008,"mode":3}
{"class":"TPV","tag":"MID2","device":"/dev/ttyUSB0","time":1301123710.000,"ept":0.005,"lat":59.319674,"lon":18.082038,"alt":0.130,"epx":9.299,"epy":14.612,"epv":38.451,"track":102.521057,"speed":15.306,"climb":0.008,"mode":3}
{"class":"TPV","tag":"MID2","device":"/dev/ttyUSB0","time":1301123711.000,"ept":0.005,"lat":59.319674,"lon":18.082038,"alt":0.130,"epx":9.299,"epy":14.612,"epv":38.451,"track":102.521057,"speed":15.306,"climb":0.008,"mode":3}
{"class":"TPV","tag":"MID2","device":"/dev/ttyUSB0","time":1301123712.000,"ept":0.005,"lat":59.319674,"lon":18.082038,"alt":0.130,"epx":9.299,"epy":14.612,"epv":38.451,"track":102.521057,"speed":15.306,"climb":0.008,"mode":3}
{"class":"TPV","tag":"MID2","device":"/dev/ttyUSB0","time":1301123713.000,"ept":0.005,"lat":59.319674,"lon":18.082038,"alt":0.130,"epx":9.299,"epy":14.612,"epv":38.451,"track":102.521057,"speed":15.306,"climb":0.008,"mode":3}
{"class":"TPV","tag":"MID2","device":"/dev/ttyUSB0","time":1301123714.000,"ept":0.005,"lat":59.319674,"lon":18.082038,"alt":0.130,"epx":9.299,"epy":14.612,"epv":38.451,"track":102.521057,"speed":15.306,"climb":0.008,"mode":3}
{"class":"TPV","tag":"MID2","device":"/dev/ttyUSB0","time":1301123715.000,"ept":0.005,"lat":59.319674,"lon":18.082038,"alt":0.130,"epx":9.299,"epy":14.612,"epv":38.451,"track":102.521057,"speed":15.306,"climb":0.008,"mode":3}
{"class":"TPV","tag":"MID2","device":"/dev/ttyUSB0","time":1301123716.000,"ept":0.005,"lat":59.319674,"lon":18.082038,"alt":0.130,"epx":9.299,"epy":14.612,"epv":38.451,"track":102.521057,"speed":15.306,"climb":0.008,"mode":3}
{"class":"TPV","tag":"MID2","device":"/dev/ttyUSB0","time":1301123717.000,"ept":0.005,"lat":59.319674,"lon":18.082038,"alt":0.130,"epx":9.299,"epy":14.612,"epv":38.451,"track":102.521057,"speed":15.306,"climb":0.008,"mode":3}
{"class":"TPV","tag":"MID2","device":"/dev/ttyUSB0","time":1301123718.000,"ept":0.005,"lat":59.319674,"lon":18.082038,"alt":0.130,"epx":9.299,"epy":14.612,"epv":38.451,"track":102.521057,"speed":15.306,"climb":0.008,"mode":3}
{"class":"TPV","tag":"MID2","device":"/dev/ttyUSB0","time":1301123719.000,"ept":0.005,"lat":59.319674,"lon":18.082038,"alt":0.130,"epx":9.299,"epy":14.612,"epv":38.451,"track":102.521057,"speed":15.306,"climb":0.008,"mode":3}
{"class":"TPV","tag":"MID2","device":"/dev/ttyUSB0","time":1301123720.000,"ept":0.005,"lat":59.319674,"lon":18.082038,"alt":0.130,"epx":9.299,"epy":14.612,"epv":38.451,"track":102.521057,"speed":15.306,"climb":0.008,"mode":3}
{"class":"TPV","tag":"MID2","device":"/dev/ttyUSB0","time":1301123721.000,"ept":0.005,"lat":59.319674,"lon":18.082038,"alt":0.130,"epx":9.299,"epy":14.612,"epv":38.451,"track":102.521057,"speed":15.306,"climb":0.008,"mode":3}
{"class":"TPV","tag":"MID2","device":"/dev/ttyUSB0","time":1301123722.000,"ept":0.005,"lat":59.319674,"lon":18.082038,"alt":0.130,"epx":9.299,"epy":14.612,"epv":38.451,"track":102.521057,"speed":15.306,"climb":0.008,"mode":3}
{"class":"TPV","tag":"MID2","device":"/dev/ttyUSB0","time":1301123723.000,"ept":0.005,"lat":59.319674,"lon":18.082038,"alt":0.130,"epx":9.299,"epy":14.612,"epv":38.451,"track":102.521057,"speed":15.306,"climb":0.008,"mode":3}
{"class":"TPV","tag":"MID2","device":"/dev/ttyUSB0","time":1301123724.000,"ept":0.005,"lat":59.319674,"lon":18.082038,"alt":0.130,"epx":9.299,"epy":14.612,"epv":38.451,"track":102.521057,"speed":15.306,"climb":0.008,"mode":3}
{"class":"TPV","tag":"MID2","device":"/dev/ttyUSB0","time":1301123725.000,"ept":0.005,"lat":59.319674,"lon":18.082038,"alt":0.130,"epx":9.299,"epy":14.612,"epv":38.451,"track":102.521057,"speed":15.306,"climb":0.008,"mode":3}
{"class":"TPV","tag":"MID2","device":"/dev/ttyUSB0","time":1301123726.000,"ept":0.005,"lat":59.319674,"lon":18.082038,"alt":0.130,"epx":9.299,"epy":14.612,"epv":38.451,"track":102.521057,"speed":15.306,"climb":0.008,"mode":3}
{"class":"TPV","tag":"MID2","device":"/dev/ttyUSB0","time":1301123727.000,"ept":0.005,"lat":59.319674,"lon":18.082038,"alt":0.130,"epx":9.299,"epy":14.612,"epv":38.451,"track":102.521057,"speed":15.306,"climb":0.008,"mode":3}
{"class":"TPV","tag":"MID2","device":"/dev/ttyUSB0","time":1301123728.000,"ept":0.005,"lat":59.319674,"lon":18.082038,"alt":0.130,"epx":9.299,"epy":14.612,"epv":38.451,"track":102.521057,"speed":15.306,"climb":0.008,"mode":3}
{"class":"TPV","tag":"MID2","device":"/dev/ttyUSB0","time":1301123729.000,"ept":0.005,"lat":59.319674,"lon":18.082038,"alt":0.130,"epx":9.299,"epy":14.612,"epv":38.451,"track":102.521057,"speed":15.306,"climb":0.008,"mode":3}
{"class":"TPV","tag":"MID2","device":"/dev/ttyUSB0","time":1301123730.000,"ept":0.005,"lat":59.319674,"lon":18.082038,"alt":0.130,"epx":9.299,"epy":14.612,"epv":38.451,"track":102.521057,"speed":15.306,"climb":0.008,"mode":3}
{"class":"TPV","tag":"MID2","device":"/dev/ttyUSB0","time":1301123731.000,"ept":0.005,"lat":59.319674,"lon":18.082038,"alt":0.130,"epx":9.299,"epy":14.612,"epv":38.451,"track":102.521057,"speed":15.306,"climb":0.008,"mode":3}
{"class":"TPV","tag":"MID2","device":"/dev/ttyUSB0","time":1301123732.000,"ept":0.005,"lat":59.319674,"lon":18.082038,"alt":0.130,"epx":9.299,"epy":14.612,"epv":38.451,"track":102.521057,"speed":15.306,"climb":0.008,"mode":3}
{"class":"TPV","tag":"MID2","device":"/dev/ttyUSB0","time":1301123733.000,"ept":0.005,"lat":59.319674,"lon":18.082038,"alt":0.130,"epx":9.299,"epy":14.612,"epv":38.451,"track":102.521057,"speed":15.306,"climb":0.008,"mode":3}
{"class":"TPV","tag":"MID2","device":"/dev/ttyUSB0","time":1301123734.000,"ept":0.005,"lat":59.319674,"lon":18.082038,"alt":0.130,"epx":9.299,"epy":14.612,"epv":38.451,"track":102.521057,"speed":15.306,"climb":0.008,"mode":3}
{"class":"TPV","tag":"MID2","device":"/dev/ttyUSB0","time":1301123735.000,"ept":0.005,"lat":59.319674,"lon":18.082038,"alt":0.130,"epx":9.299,"epy":14.612,"epv":38.451,"track":102.521057,"speed":15.306,"climb":0.008,"mode":3}
{"class":"TPV","tag":"MID2","device":"/dev/ttyUSB0","time":1301123736.000,"ept":0.005,"lat":59.319674,"lon":18.082038,"alt":0.130,"epx":9.299,"epy":14.612,"epv":38.451,"track":102.521057,"speed":15.306,"climb":0.008,"mode":3}
{"class":"TPV","tag":"MID2","device":"/dev/ttyUSB0","time":1301123737.000,"ept":0.005,"lat":59.319674,"lon":18.082038,"alt":0.130,"epx":9.299,"epy":14.612,"epv":38.451,"track":102.521057,"speed":15.306,"climb":0.008,"mode":3}
{"class":"TPV","tag":"MID2","device":"/dev/ttyUSB0","time":1301123738.000,"ept":0.005,"lat":59.319674,"lon":18.082038,"alt":0.130,"epx":9.299,"epy":14.612,"epv":38.451,"track":102.521057,"speed":15.306,"climb":0.008,"mode":3}
{"class":"TPV","tag":"MID2","device":"/dev/ttyUSB0","time":1301123739.000,"ept":0.005,"lat":59.319674,"lon":18.082038,"alt":0.130,"epx":9.299,"epy":14.612,"epv":38.451,"track":102.521057,"speed":15.306,"climb":0.008,"mode":3}
{"class":"TPV","tag":"MID2","device":"/dev/ttyUSB0","time":1301123740.000,"ept":0.005,"lat":59.319674,"lon":18.082038,"alt":0.130,"epx":9.299,"epy":14.612,"epv":38.451,"track":102.521057,"speed":15.306,"climb":0.008,"mode":3}
{"class":"TPV","tag":"MID2","device":"/dev/ttyUSB0","time":1301123741.000,"ept":0.005,"lat":59.319674,"lon":18.082038,"alt":0.130,"epx":9.299,"epy":14.612,"epv":38.451,"track":102.521057,"speed":15.306,"climb":0.008,"mode":3}
{"class":"TPV","tag":"MID2","device":"/dev/ttyUSB0","time":1301123742.000,"ept":0.005,"lat":59.319674,"lon":18.082038,"alt":0.130,"epx":9.299,"epy":14.612,"epv":38.451,"track":102.521057,"speed":15.306,"climb":0.008,"mode":3}
{"class":"TPV","tag":"MID2","device":"/dev/ttyUSB0","time":1301123743.000,"ept":0.005,"lat":59.319674,"lon":18.082038,"alt":0.130,"epx":9.299,"epy":14.612,"epv":38.451,"track":102.521057,"speed":15.306,"climb":0.008,"mode":3}
{"class":"TPV","tag":"MID2","device":"/dev/ttyUSB0","time":1301123744.000,"ept":0.005,"lat":59.319674,"lon":18.082038,"alt":0.130,"epx":9.299,"epy":14.612,"epv":38.451,"track":102.521057,"speed":15.306,"climb":0.008,"mode":3}
{"class":"TPV","tag":"MID2","device":"/dev/ttyUSB0","time":1301123745.000,"ept":0.005,"lat":59.319674,"lon":18.082038,"alt":0.130,"epx":9.299,"epy":14.612,"epv":38.451,"track":102.521057,"speed":15.306,"climb":0.008,"mode":3}
{"class":"TPV","tag":"MID2","device":"/dev/ttyUSB0","time":1301123746.000,"ept":0.005,"lat":59.319674,"lon":18.082038,"alt":0.130,"epx":9.299,"epy":14.612,"epv":38.451,"track":102.521057,"speed":15.306,"climb":0.008,"mode":3}
{"class":"TPV","tag":"MID2","device":"/dev/ttyUSB0","time":1301123747.000,"ept":0.005,"lat":59.319674,"lon":18.082038,"alt":0.130,"epx":9.299,"epy":14.612,"epv":38.451,"track":102.521057,"speed":15.306,"climb":0.008,"mode":3}
{"class":"TPV","tag":"MID2","device":"/dev/ttyUSB0","time":1301123748.000,"ept":0.005,"lat":59.319674,"lon":18.082038,"alt":0.130,"epx":9.299,"epy":14.612,"epv":38.451,"track":102.521057,"speed":15.306,"climb":0.008,"mode":3}
{"class":"TPV","tag":"MID2","device":"/dev/ttyUSB0","time":1301123749.000,"ept":0.005,"lat":59.319674,"lon":18.082038,"alt":0.130,"epx":9.299,"epy":14.612,"epv":38.451,"track":102.521057,"speed":15.306,"climb":0.008,"mode":3}
{"class":"TPV","tag":"MID2","device":"/dev/ttyUSB0","time":1301123750.000,"ept":0.005,"lat":59.319674,"lon":18.082038,"alt":0.130,"epx":9.299,"epy":14.612,"epv":38.451,"track":102.521057,"speed":15.306,"climb":0.008,"mode":3}
{"class":"TPV","tag":"MID2","device":"/dev/ttyUSB0","time":1301123751.000,"ept":0.005,"lat":59.319674,"lon":18.082038,"alt":0.130,"epx":9.299,"epy":14.612,"epv":38.451,"track":102.521057,"speed":15.306,"climb":0.008,"mode":3}
{"class":"TPV","tag":"MID2","device":"/dev/ttyUSB0","time":1301123752.000,"ept":0.005,"lat":59.319674,"lon":18.082038,"alt":0.130,"epx":9.299,"epy":14.612,"epv":38.451,"track":102.521057,"speed":15.306,"climb":0.008,"mode":3}
{"class":"TPV","tag":"MID2","device":"/dev/ttyUSB0","time":1301123753.000,"ept":0.005,"lat":59.319674,"lon":18.082038,"alt":0.130,"epx":9.299,"epy":14.612,"epv":38.451,"track":102.521057,"speed":15.306,"climb":0.008,"mode":3}
{"class":"TPV","tag":"MID2","device":"/dev/ttyUSB0","time":1301123754.000,"ept":0.005,"lat":59.319674,"lon":18.082038,"alt":0.130,"epx":9.299,"epy":14.612,"epv":38.451,"track":102.521057,"speed":15.306,"climb":0.008,"mode":3}
{"class":"TPV","tag":"MID2","device":"/dev/ttyUSB0","time":1301123755.000,"ept":0.005,"lat":59.319674,"lon":18.082038,"alt":0.130,"epx":9.299,"epy":14.612,"epv":38.451,"track":102.521057,"speed":15.306,"climb":0.008,"mode":3}
{"class":"TPV","tag":"MID2","device":"/dev/ttyUSB0","time":1301123756.000,"ept":0.005,"lat":59.319674,"lon":18.082038,"alt":0.130,"epx":9.299,"epy":14.612,"epv":38.451,"track":102.521057,"speed":15.306,"climb":0.008,"mode":3}
{"class":"TPV","tag":"MID2","device":"/dev/ttyUSB0","time":1301123757.000,"ept":0.005,"lat":59.319674,"lon":18.082038,"alt":0.130,"epx":9.299,"epy":14.612,"epv":38.451,"track":102.521057,"speed":15.306,"climb":0.008,"mode":3}
{"class":"TPV","tag":"MID2","device":"/dev/ttyUSB0","time":1301123758.000,"ept":0.005,"lat":59.319674,"lon":18.082038,"alt":0.130,"epx":9.299,"epy":14.612,"epv":38.451,"track":102.521057,"speed":15.306,"climb":0.008,"mode":3}
{"class":"TPV","tag":"MID2","device":"/dev/ttyUSB0","time":1301123759.000,"ept":0.005,"lat":59.319674,"lon":18.082038,"alt":0.130,"epx":9.299,"epy":14.612,"epv":38.451,"track":102.521057,"speed":15.306,"climb":0.008,"mode":3}
{"class":"TPV","tag":"MID2","device":"/dev/ttyUSB0","time":1301123760.000,"ept":0.005,"lat":59.319674,"lon":18.082038,"alt":0.130,"epx":9.299,"epy":14.612,"epv":38.451,"track":102.521057,"speed":15.306,"climb":0.008,"mode":3}
{"class":"TPV","tag":"MID2","device":"/dev/ttyUSB0","time":1301123761.000,"ept":0.005,"lat":59.319674,"lon":18.082038,"alt":0.130,"epx":9.299,"epy":14.612,"epv":38.451,"track":102.521057,"speed":15.306,"climb":0.008,"mode":3}
{"class":"TPV","tag":"MID2","device":"/dev/ttyUSB0","time":1301123762.000,"ept":0.005,"lat":59.319674,"lon":18.082038,"alt":0.130,"epx":9.299,"epy":14.612,"epv":38.451,"track":102.521057,"speed":15.306,"climb":0.008,"mode":3}
{"class":"TPV","tag":"MID2","device":"/dev/ttyUSB0","time":1301123763.000,"ept":0.005,"lat":59.319674,"lon":18.082038,"alt":0.130,"epx":9.299,"epy":14.612,"epv":38.451,"track":102.521057,"speed":15.306,"climb":0.008,"mode":3}
{"class":"TPV","tag":"MID2","device":"/dev/ttyUSB0","time":1301123764.000,"ept":0.005,"lat":59.319674,"lon":18.082038,"alt":0.130,"epx":9.299,"epy":14.612,"epv":38.451,"track":102.521057,"speed":15.306,"climb":0.008,"mode":3}
{"class":"TPV","tag":"MID2","device":"/dev/ttyUSB0","time":1301123765.000,"ept":0.005,"lat":59.319674,"lon":18.082038,"alt":0.130,"epx":9.299,"epy":14.612,"epv":38.451,"track":102.521057,"speed":15.306,"climb":0.008,"mode":3}
{"class":"TPV","tag":"MID2","device":"/dev/ttyUSB0","time":1301123766.000,"ept":0.005,"lat":59.319674,"lon":18.082038,"alt":0.130,"epx":9.299,"epy":14.612,"epv":38.451,"track":102.521057,"speed":15.306,"climb":0.008,"mode":3}
{"class":"TPV","tag":"MID2","device":"/dev/ttyUSB0","time":1301123767.000,"ept":0.005,"lat":59.319674,"lon":18.082038,"alt":0.130,"epx":9.299,"epy":14.612,"epv":38.451,"track":102.521057,"speed":15.306,"climb":0.008,"mode":3}
{"class":"TPV","tag":"MID2","device":"/dev/ttyUSB0","time":1301123768.000,"ept":0.005,"lat":59.319674,"lon":18.082038,"alt":0.130,"epx":9.299,"epy":14.612,"epv":38.451,"track":102.521057,"speed":15.306,"climb":0.008,"mode":3}
{"class":"TPV","tag":"MID2","device":"/dev/ttyUSB0","time":1301123769.000,"ept":0.005,"lat":59.319674,"lon":18.082038,"alt":0.130,"epx":9.299,"epy":14.612,"epv":38.451,"track":102.521057,"speed":15.306,"climb":0.008,"mode":3}
{"class":"TPV","tag":"MID2","device":"/dev/ttyUSB0","time":1301123770.000,"ept":0.005,"lat":59.319674,"lon":18.082038,"alt":0.130,"epx":9.299,"epy":14.612,"epv":38.451,"track":102.521057,"speed":15.306,"climb":0.008,"mode":3}
{"class":"TPV","tag":"MID2","device":"/dev/ttyUSB0","time":1301123771.000,"ept":0.005,"lat":59.319674,"lon":18.082038,"alt":0.130,"epx":9.299,"epy":14.612,"epv":38.451,"track":102.521057,"speed":15.306,"climb":0.008,"mode":3}
{"class":"TPV","tag":"MID2","device":"/dev/ttyUSB0","time":1301123772.000,"ept":0.005,"lat":59.319674,"lon":18.082038,"alt":0.130,"epx":9.299,"epy":14.612,"epv":38.451,"track":102.521057,"speed":15.306,"climb":0.008,"mode":3}
{"class":"TPV","tag":"MID2","device":"/dev/ttyUSB0","time":1301123773.000,"ept":0.005,"lat":59.319674,"lon":18.082038,"alt":0.130,"epx":9.299,"epy":14.612,"epv":38.451,"track":102.521057,"speed":15.306,"climb":0.008,"mode":3}
{"class":"TPV","tag":"MID2","device":"/dev/ttyUSB0","time":1301123774.000,"ept":0.005,"lat":59.319674,"lon":18.082038,"alt":0.130,"epx":9.299,"epy":14.612,"epv":38.451,"track":102.521057,"speed":15.306,"climb":0.008,"mode":3}
{"class":"TPV","tag":"MID2","device":"/dev/ttyUSB0","time":1301123775.000,"ept":0.005,"lat":59.319674,"lon":18.082038,"alt":0.130,"epx":9.299,"epy":14.612,"epv":38.451,"track":102.521057,"speed":15.306,"climb":0.008,"mode":3}
{"class":"TPV","tag":"MID2","device":"/dev/ttyUSB0","time":1301123776.000,"ept":0.005,"lat":59.319674,"lon":18.082038,"alt":0.130,"epx":9.299,"epy":14.612,"epv":38.451,"track":102.521057,"speed":15.306,"climb":0.008,"mode":3}
{"class":"TPV","tag":"MID2","device":"/dev/ttyUSB0","time":1301123777.000,"ept":0.005,"lat":59.319674,"lon":18.082038,"alt":0.130,"epx":9.299,"epy":14.612,"epv":38.451,"track":102.521057,"speed":15.306,"climb":0.008,"mode":3}
{"class":"TPV","tag":"MID2","device":"/dev/ttyUSB0","time":1301123778.000,"ept":0.005,"lat":59.319674,"lon":18.082038,"alt":0.130,"epx":9.299,"epy":14.612,"epv":38.451,"track":102.521057,"speed":15.306,"climb":0.008,"mode":3}
{"class":"TPV","tag":"MID2","device":"/dev/ttyUSB0","time":1301123779.000,"ept":0.005,"lat":59.319674,"lon":18.082038,"alt":0.130,"epx":9.299,"epy":14.612,"epv":38.451,"track":102.521057,"speed":15.306,"climb":0.008,"mode":3}
{"class":"TPV","tag":"MID2","device":"/dev/ttyUSB0","time":1301123780.000,"ept":0.005,"lat":59.319674,"lon":18.082038,"alt":0.130,"epx":9.299,"epy":14.612,"epv":38.451,"track":102.521057,"speed":15.306,"climb":0.008,"mode":3}
{"class":"TPV","tag":"MID2","device":"/dev/ttyUSB0","time":1301123781.000,"ept":0.005,"lat":59.319674,"lon":18.082038,"alt":0.130,"epx":9.299,"epy":14.612,"epv":38.451,"track":102.521057,"speed":15.306,"climb":0.008,"mode":3}
{"class":"TPV","tag":"MID2","device":"/dev/ttyUSB0","time":1301123782.000,"ept":0.005,"lat":59.319674,"lon":18.082038,"alt":0.130,"epx":9.299,"epy":14.612,"epv":38.451,"track":102.521057,"speed":15.306,"climb":0.008,"mode":3}
{"class":"TPV","tag":"MID2","device":"/dev/ttyUSB0","time":1301123783.000,"ept":0.005,"lat":59.319674,"lon":18.082038,"alt":0.130,"epx":9.299,"epy":14.612,"epv":38.451,"track":102.521057,"speed":15.306,"climb":0.008,"mode":3}
{"class":"TPV","tag":"MID2","device":"/dev/ttyUSB0","time":1301123784.000,"ept":0.005,"lat":59.319674,"lon":18.082038,"alt":0.130,"epx":9.299,"epy":14.612,"epv":38.451,"track":102.521057,"speed":15.306,"climb":0.008,"mode":3}
{"class":"TPV","tag":"MID2","device":"/dev/ttyUSB0","time":1301123785.000,"ept":0.005,"lat":59.319674,"lon":18.082038,"alt":0.130,"epx":9.299,"epy":14.612,"epv":38.451,"track":102.521057,"speed":15.306,"climb":0.008,"mode":3}
{"class":"TPV","tag":"MID2","device":"/dev/ttyUSB0","time":1301123786.000,"ept":0.005,"lat":59.319674,"lon":18.082038,"alt":0.130,"epx":9.299,"epy":14.612,"epv":38.451,"track":102.521057,"speed":15.306,"climb":0.008,"mode":3}
{"class":"TPV","tag":"MID2","device":"/dev/ttyUSB0","time":1301123787.000,"ept":0.005,"lat":59.319674,"lon":18.082038,"alt":0.130,"epx":9.299,"epy":14.612,"epv":38.451,"track":102.521057,"speed":15.306,"climb":0.008,"mode":3}
{"class":"TPV","tag":"MID2","device":"/dev/ttyUSB0","time":1301123788.000,"ept":0.005,"lat":59.319674,"lon":18.082038,"alt":0.130,"epx":9.299,"epy":14.612,"epv":38.451,"track":102.521057,"speed":15.306,"climb":0.008,"mode":3}
{"class":"TPV","tag":"MID2","device":"/dev/ttyUSB0","time":1301123789.000,"ept":0.005,"lat":59.319674,"lon":18.082038,"alt":0.130,"epx":9.299,"epy":14.612,"epv":38.451,"track":102.521057,"speed":15.306,"climb":0.008,"mode":3}
{"class":"TPV","tag":"MID2","device":"/dev/ttyUSB0","time":1301123790.000,"ept":0.005,"lat":59.319674,"lon":18.082038,"alt":0.130,"epx":9.299,"epy":14.612,"epv":38.451,"track":102.521057,"speed":15.306,"climb":0.008,"mode":3}
{"class":"TPV","tag":"MID2","device":"/dev/ttyUSB0","time":1301123791.000,"ept":0.005,"lat":59.319674,"lon":18.082038,"alt":0.130,"epx":9.299,"epy":14.612,"epv":38.451,"track":102.521057,"speed":15.306,"climb":0.008,"mode":3}
{"class":"TPV","tag":"MID2","device":"/dev/ttyUSB0","time":1301123792.000,"ept":0.005,"lat":59.319674,"lon":18.082038,"alt":0.130,"epx":9.299,"epy":14.612,"epv":38.451,"track":102.521057,"speed":15.306,"climb":0.008,"mode":3}
{"class":"TPV","tag":"MID2","device":"/dev/ttyUSB0","time":1301123793.000,"ept":0.005,"lat":59.319674,"lon":18.082038,"alt":0.130,"epx":9.299,"epy":14.612,"epv":38.451,"track":102.521057,"speed":15.306,"climb":0.008,"mode":3}
{"class":"TPV","tag":"MID2","device":"/dev/ttyUSB0","time":1301123794.000,"ept":0.005,"lat":59.319674,"lon":18.082038,"alt":0.130,"epx":9.299,"epy":14.612,"epv":38.451,"track":102.521057,"speed":15.306,"climb":0.008,"mode":3}
{"class":"TPV","tag":"MID2","device":"/dev/ttyUSB0","time":1301123795.000,"ept":0.005,"lat":59.319674,"lon":18.082038,"alt":0.130,"epx":9.299,"epy":14.612,"epv":38.451,"track":102.521057,"speed":15.306,"climb":0.008,"mode":3}
{"class":"TPV","tag":"MID2","device":"/dev/ttyUSB0","time":1301123796.000,"ept":0.005,"lat":59.319674,"lon":18.082038,"alt":0.130,"epx":9.299,"epy":14.612,"epv":38.451,"track":102.521057,"speed":15.306,"climb":0.008,"mode":3}
{"class":"TPV","tag":"MID2","device":"/dev/ttyUSB0","time":1301123797.000,"ept":0.005,"lat":59.319674,"lon":18.082038,"alt":0.130,"epx":9.299,"epy":14.612,"epv":38.451,"track":102.521057,"speed":15.306,"climb":0.008,"mode":3}
{"class":"TPV","tag":"MID2","device":"/dev/ttyUSB0","time":1301123798.000,"ept":0.005,"lat":59.319674,"lon":18.082038,"alt":0.130,"epx":9.299,"epy":14.612,"epv":38.451,"track":102.521057,"speed":15.306,"climb":0.008,"mode":3}
{"class":"TPV","tag":"MID2","device":"/dev/ttyUSB0","time":1301123799.000,"ept":0.005,"lat":59.319674,"lon":18.082038,"alt":0.130,"epx":9.299,"epy":14.612,"epv":38.451,"track":102.521057,"speed":15.306,"climb":0.008,"mode":3}
{"class":"TPV","tag":"MID2","device":"/dev/ttyUSB0","time":1301123800.000,"ept":0.005,"lat":59.319674,"lon":18.082038,"alt":0.130,"epx":9.299,"epy":14.612,"epv":38.451,"track":102.521057,"speed":15.306,"climb":0.008,"mode":3}
{"class":"TPV","tag":"MID2","device":"/dev/ttyUSB0","time":1301123801.000,"ept":0.005,"lat":59.319674,"lon":18.082038,"alt":0.130,"epx":9.299,"epy":14.612,"epv":38.451,"track":102.521057,"speed":15.306,"climb":0.008,"mode":3}
{"class":"TPV","tag":"MID2","device":"/dev/ttyUSB0","time":1301123802.000,"ept":0.005,"lat":59.319674,"lon":18.082038,"alt":0.130,"epx":9.299,"epy":14.612,"epv":38.451,"track":102.521057,"speed":15.306,"climb":0.008,"mode":3}
{"class":"TPV","tag":"MID2","device":"/dev/ttyUSB0","time":1301123803.000,"ept":0.005,"lat":59.319674,"lon":18.082038,"alt":0.130,"epx":9.299,"epy":14.612,"epv":38.451,"track":102.521057,"speed":15.306,"climb":0.008,"mode":3}
{"class":"TPV","tag":"MID2","device":"/dev/ttyUSB0","time":1301123804.000,"ept":0.005,"lat":59.319674,"lon":18.082038,"alt":0.130,"epx":9.299,"epy":14.612,"epv":38.451,"track":102.521057,"speed":15.306,"climb":0.008,"mode":3}
{"class":"TPV","tag":"MID2","device":"/dev/ttyUSB0","time":1301123805.000,"ept":0.005,"lat":59.319674,"lon":18.082038,"alt":0.130,"epx":9.299,"epy":14.612,"epv":38.451,"track":102.521057,"speed":15.306,"climb":0.008,"mode":3}
{"class":"TPV","tag":"MID2","device":"/dev/ttyUSB0","time":1301123806.000,"ept":0.005,"lat":59.319674,"lon":18.082038,"alt":0.130,"epx":9.299,"epy":14.612,"epv":38.451,"track":102.521057,"speed":15.306,"climb":0.008,"mode":3}
{"class":"TPV","tag":"MID2","device":"/dev/ttyUSB0","time":1301123807.000,"ept":0.005,"lat":59.319674,"lon":18.082038,"alt":0.130,"epx":9.299,"epy":14.612,"epv":38.451,"track":102.521057,"speed":15.306,"climb":0.008,"mode":3}
{"class":"TPV","tag":"MID2","device":"/dev/ttyUSB0","time":1301123808.000,"ept":0.005,"lat":59.319674,"lon":18.082038,"alt":0.130,"epx":9.299,"epy":14.612,"epv":38.451,"track":102.521057,"speed":15.306,"climb":0.008,"mode":3}
{"class":"TPV","tag":"MID2","device":"/dev/ttyUSB0","time":1301123809.000,"ept":0.005,"lat":59.319674,"lon":18.082038,"alt":0.130,"epx":9.299,"epy":14.612,"epv":38.451,"track":102.521057,"speed":15.306,"climb":0.008,"mode":3}
{"class":"TPV","tag":"MID2","device":"/dev/ttyUSB0","time":1301123810.000,"ept":0.005,"lat":59.319674,"lon":18.082038,"alt":0.130,"epx":9.299,"epy":14.612,"epv":38.451,"track":102.521057,"speed":15.306,"climb":0.008,"mode":3}
